<?xml version="1.0" encoding="utf-8"?>
<data>
	<meteorite_landings>
		<name>Ruiz</name>
		<id>10001</id>
		<recclass>L5</recclass>
		<mass>21</mass>
		<reclat>50.775</reclat>
		<reclong>6.08333</reclong>
		<GeoLocation>(50.775, 6.08333)</GeoLocation>
	</meteorite_landings>
	<meteorite_landings>
		<name>Beeler</name>
		<id>10002</id>
		<recclass>H6</recclass>
		<mass>720</mass>
		<reclat>56.18333</reclat>
		<reclong>10.23333</reclong>
		<GeoLocation>(56.18333, 10.23333)</GeoLocation>
	</meteorite_landings>
	<meteorite_landings>
		<name>Brock</name>
		<id>10003</id>
		<recclass>EH4</recclass>
		<mass>107000</mass>
		<reclat>54.21667</reclat>
		<reclong>-113</reclong>
		<GeoLocation>(54.21667, -113.0)</GeoLocation>
	</meteorite_landings>
	<meteorite_landings>
		<name>Hillebrand</name>
		<id>10004</id>
		<recclass>Acapulcoite</recclass>
		<mass>1914</mass>
		<reclat>16.88333</reclat>
		<reclong>-99.9</reclong>
		<GeoLocation>(16.88333, -99.9)</GeoLocation>
	</meteorite_landings>
	<meteorite_landings>
		<name>Mitchell</name>
		<id>10005</id>
		<recclass>L6</recclass>
		<mass>780</mass>
		<reclat>-33.16667</reclat>
		<reclong>-64.95</reclong>
		<GeoLocation>(-33.16667, -64.95)</GeoLocation>
	</meteorite_landings>
	<meteorite_landings>
		<name>Ortiz</name>
		<id>10006</id>
		<recclass>EH4</recclass>
		<mass>4239</mass>
		<reclat>32.1</reclat>
		<reclong>71.8</reclong>
		<GeoLocation>(32.1, 71.8)</GeoLocation>
	</meteorite_landings>
	<meteorite_landings>
		<name>Souza</name>
		<id>10007</id>
		<recclass>LL3-6</recclass>
		<mass>910</mass>
		<reclat>44.83333</reclat>
		<reclong>95.16667</reclong>
		<GeoLocation>(44.83333, 95.16667)</GeoLocation>
	</meteorite_landings>
	<meteorite_landings>
		<name>Toler</name>
		<id>10008</id>
		<recclass>H5</recclass>
		<mass>30000</mass>
		<reclat>44.21667</reclat>
		<reclong>0.61667</reclong>
		<GeoLocation>(44.21667, 0.61667)</GeoLocation>
	</meteorite_landings>
	<meteorite_landings>
		<name>Hachey</name>
		<id>10009</id>
		<recclass>L6</recclass>
		<mass>1620</mass>
		<reclat>-31.6</reclat>
		<reclong>-65.23333</reclong>
		<GeoLocation>(-31.6, -65.23333)</GeoLocation>
	</meteorite_landings>
	<meteorite_landings>
		<name>Alexander</name>
		<id>10010</id>
		<recclass>L</recclass>
		<mass>1440</mass>
		<reclat>-30.86667</reclat>
		<reclong>-64.55</reclong>
		<GeoLocation>(-30.86667, -64.55)</GeoLocation>
	</meteorite_landings>
	<meteorite_landings>
		<name>Nunez</name>
		<id>10011</id>
		<recclass>Diogenite-pm</recclass>
		<mass>1000</mass>
		<reclat>16.39806</reclat>
		<reclong>-9.57028</reclong>
		<GeoLocation>(16.39806, -9.57028)</GeoLocation>
	</meteorite_landings>
	<meteorite_landings>
		<name>Chester</name>
		<id>10012</id>
		<recclass>L6</recclass>
		<mass>24000</mass>
		<reclat>19.08333</reclat>
		<reclong>8.38333</reclong>
		<GeoLocation>(19.08333, 8.38333)</GeoLocation>
	</meteorite_landings>
	<meteorite_landings>
		<name>Obermeyer</name>
		<id>10013</id>
		<recclass>Stone-uncl</recclass>
		<mass>2700</mass>
		<reclat>26.58333</reclat>
		<reclong>85.56667</reclong>
		<GeoLocation>(26.58333, 85.56667)</GeoLocation>
	</meteorite_landings>
	<meteorite_landings>
		<name>Paris</name>
		<id>10014</id>
		<recclass>L6</recclass>
		<mass>779</mass>
		<reclat>29.51667</reclat>
		<reclong>35.05</reclong>
		<GeoLocation>(29.51667, 35.05)</GeoLocation>
	</meteorite_landings>
	<meteorite_landings>
		<name>Kelly</name>
		<id>10015</id>
		<recclass>H4</recclass>
		<mass>1800</mass>
		<reclat>29.71667</reclat>
		<reclong>77.95</reclong>
		<GeoLocation>(29.71667, 77.95)</GeoLocation>
	</meteorite_landings>
	<meteorite_landings>
		<name>Smith</name>
		<id>10016</id>
		<recclass>H</recclass>
		<mass>3000</mass>
		<reclat>8.91667</reclat>
		<reclong>8.43333</reclong>
		<GeoLocation>(8.91667, 8.43333)</GeoLocation>
	</meteorite_landings>
	<meteorite_landings>
		<name>Wills</name>
		<id>10017</id>
		<recclass>Iron-IVA</recclass>
		<mass>50000</mass>
		<reclat>39.91667</reclat>
		<reclong>42.81667</reclong>
		<GeoLocation>(39.91667, 42.81667)</GeoLocation>
	</meteorite_landings>
	<meteorite_landings>
		<name>Becker</name>
		<id>10018</id>
		<recclass>CR2-an</recclass>
		<mass>160</mass>
		<reclat>24.41667</reclat>
		<reclong>39.51667</reclong>
		<GeoLocation>(24.41667, 39.51667)</GeoLocation>
	</meteorite_landings>
	<meteorite_landings>
		<name>Ray</name>
		<id>10019</id>
		<recclass>LL5</recclass>
		<mass>700</mass>
		<reclat>13.66033</reclat>
		<reclong>28.96</reclong>
		<GeoLocation>(13.66033, 28.96)</GeoLocation>
	</meteorite_landings>
	<meteorite_landings>
		<name>Obrien</name>
		<id>10020</id>
		<recclass>CI1</recclass>
		<mass>6000</mass>
		<reclat>44.11667</reclat>
		<reclong>4.08333</reclong>
		<GeoLocation>(44.11667, 4.08333)</GeoLocation>
	</meteorite_landings>
	<meteorite_landings>
		<name>Green</name>
		<id>10021</id>
		<recclass>L/LL4</recclass>
		<mass>2000</mass>
		<reclat>44.65</reclat>
		<reclong>11.01667</reclong>
		<GeoLocation>(44.65, 11.01667)</GeoLocation>
	</meteorite_landings>
	<meteorite_landings>
		<name>Bell</name>
		<id>10022</id>
		<recclass>L</recclass>
		<mass>625</mass>
		<reclat>2</reclat>
		<reclong>22.66667</reclong>
		<GeoLocation>(2.0, 22.66667)</GeoLocation>
	</meteorite_landings>
	<meteorite_landings>
		<name>Guillaume</name>
		<id>10023</id>
		<recclass>Eucrite-mmict</recclass>
		<mass>252</mass>
		<reclat>45.82133</reclat>
		<reclong>6.01533</reclong>
		<GeoLocation>(45.82133, 6.01533)</GeoLocation>
	</meteorite_landings>
	<meteorite_landings>
		<name>Bautista</name>
		<id>10024</id>
		<recclass>LL5</recclass>
		<mass>700</mass>
		<reclat>51.78333</reclat>
		<reclong>-1.78333</reclong>
		<GeoLocation>(51.78333, -1.78333)</GeoLocation>
	</meteorite_landings>
	<meteorite_landings>
		<name>Delgado</name>
		<id>10025</id>
		<recclass>L6</recclass>
		<mass>3200</mass>
		<reclat>36.23333</reclat>
		<reclong>37.13333</reclong>
		<GeoLocation>(36.23333, 37.13333)</GeoLocation>
	</meteorite_landings>
	<meteorite_landings>
		<name>Thompson</name>
		<id>10026</id>
		<recclass>H5</recclass>
		<mass>908</mass>
		<reclat>44.88333</reclat>
		<reclong>8.75</reclong>
		<GeoLocation>(44.88333, 8.75)</GeoLocation>
	</meteorite_landings>
	<meteorite_landings>
		<name>Fritter</name>
		<id>10027</id>
		<recclass>H4</recclass>
		<mass>9251</mass>
		<reclat>50.95</reclat>
		<reclong>31.81667</reclong>
		<GeoLocation>(50.95, 31.81667)</GeoLocation>
	</meteorite_landings>
	<meteorite_landings>
		<name>Fletcher</name>
		<id>10028</id>
		<recclass>L6</recclass>
		<mass>228000</mass>
		<reclat>45.26667</reclat>
		<reclong>10.15</reclong>
		<GeoLocation>(45.26667, 10.15)</GeoLocation>
	</meteorite_landings>
	<meteorite_landings>
		<name>Belin</name>
		<id>10029</id>
		<recclass>H5</recclass>
		<mass>32000</mass>
		<reclat>42.53333</reclat>
		<reclong>-85.88333</reclong>
		<GeoLocation>(42.53333, -85.88333)</GeoLocation>
	</meteorite_landings>
	<meteorite_landings>
		<name>Poeschel</name>
		<id>10030</id>
		<recclass>CV3</recclass>
		<mass>2000000</mass>
		<reclat>26.96667</reclat>
		<reclong>-105.31667</reclong>
		<GeoLocation>(26.96667, -105.31667)</GeoLocation>
	</meteorite_landings>
</data>
