{
  "meteorite_landings": [
    {
      "name": "Ruiz",
      "id": "10001",
      "recclass": "L5",
      "mass (g)": "21",
      "reclat": "50.775",
      "reclong": "6.08333",
      "GeoLocation": "(50.775, 6.08333)"
    },
    {
      "name": "Beeler",
      "id": "10002",
      "recclass": "H6",
      "mass (g)": "720",
      "reclat": "56.18333",
      "reclong": "10.23333",
      "GeoLocation": "(56.18333, 10.23333)"
    },
    {
      "name": "Brock",
      "id": "10003",
      "recclass": "EH4",
      "mass (g)": "107000",
      "reclat": "54.21667",
      "reclong": "-113",
      "GeoLocation": "(54.21667, -113.0)"
    },
    {
      "name": "Hillebrand",
      "id": "10004",
      "recclass": "Acapulcoite",
      "mass (g)": "1914",
      "reclat": "16.88333",
      "reclong": "-99.9",
      "GeoLocation": "(16.88333, -99.9)"
    },
    {
      "name": "Mitchell",
      "id": "10005",
      "recclass": "L6",
      "mass (g)": "780",
      "reclat": "-33.16667",
      "reclong": "-64.95",
      "GeoLocation": "(-33.16667, -64.95)"
    },
    {
      "name": "Ortiz",
      "id": "10006",
      "recclass": "EH4",
      "mass (g)": "4239",
      "reclat": "32.1",
      "reclong": "71.8",
      "GeoLocation": "(32.1, 71.8)"
    },
    {
      "name": "Souza",
      "id": "10007",
      "recclass": "LL3-6",
      "mass (g)": "910",
      "reclat": "44.83333",
      "reclong": "95.16667",
      "GeoLocation": "(44.83333, 95.16667)"
    },
    {
      "name": "Toler",
      "id": "10008",
      "recclass": "H5",
      "mass (g)": "30000",
      "reclat": "44.21667",
      "reclong": "0.61667",
      "GeoLocation": "(44.21667, 0.61667)"
    },
    {
      "name": "Hachey",
      "id": "10009",
      "recclass": "L6",
      "mass (g)": "1620",
      "reclat": "-31.6",
      "reclong": "-65.23333",
      "GeoLocation": "(-31.6, -65.23333)"
    },
    {
      "name": "Alexander",
      "id": "10010",
      "recclass": "L",
      "mass (g)": "1440",
      "reclat": "-30.86667",
      "reclong": "-64.55",
      "GeoLocation": "(-30.86667, -64.55)"
    },
    {
      "name": "Nunez",
      "id": "10011",
      "recclass": "Diogenite-pm",
      "mass (g)": "1000",
      "reclat": "16.39806",
      "reclong": "-9.57028",
      "GeoLocation": "(16.39806, -9.57028)"
    },
    {
      "name": "Chester",
      "id": "10012",
      "recclass": "L6",
      "mass (g)": "24000",
      "reclat": "19.08333",
      "reclong": "8.38333",
      "GeoLocation": "(19.08333, 8.38333)"
    },
    {
      "name": "Obermeyer",
      "id": "10013",
      "recclass": "Stone-uncl",
      "mass (g)": "2700",
      "reclat": "26.58333",
      "reclong": "85.56667",
      "GeoLocation": "(26.58333, 85.56667)"
    },
    {
      "name": "Paris",
      "id": "10014",
      "recclass": "L6",
      "mass (g)": "779",
      "reclat": "29.51667",
      "reclong": "35.05",
      "GeoLocation": "(29.51667, 35.05)"
    },
    {
      "name": "Kelly",
      "id": "10015",
      "recclass": "H4",
      "mass (g)": "1800",
      "reclat": "29.71667",
      "reclong": "77.95",
      "GeoLocation": "(29.71667, 77.95)"
    },
    {
      "name": "Smith",
      "id": "10016",
      "recclass": "H",
      "mass (g)": "3000",
      "reclat": "8.91667",
      "reclong": "8.43333",
      "GeoLocation": "(8.91667, 8.43333)"
    },
    {
      "name": "Wills",
      "id": "10017",
      "recclass": "Iron-IVA",
      "mass (g)": "50000",
      "reclat": "39.91667",
      "reclong": "42.81667",
      "GeoLocation": "(39.91667, 42.81667)"
    },
    {
      "name": "Becker",
      "id": "10018",
      "recclass": "CR2-an",
      "mass (g)": "160",
      "reclat": "24.41667",
      "reclong": "39.51667",
      "GeoLocation": "(24.41667, 39.51667)"
    },
    {
      "name": "Ray",
      "id": "10019",
      "recclass": "LL5",
      "mass (g)": "700",
      "reclat": "13.66033",
      "reclong": "28.96",
      "GeoLocation": "(13.66033, 28.96)"
    },
    {
      "name": "Obrien",
      "id": "10020",
      "recclass": "CI1",
      "mass (g)": "6000",
      "reclat": "44.11667",
      "reclong": "4.08333",
      "GeoLocation": "(44.11667, 4.08333)"
    },
    {
      "name": "Green",
      "id": "10021",
      "recclass": "L/LL4",
      "mass (g)": "2000",
      "reclat": "44.65",
      "reclong": "11.01667",
      "GeoLocation": "(44.65, 11.01667)"
    },
    {
      "name": "Bell",
      "id": "10022",
      "recclass": "L",
      "mass (g)": "625",
      "reclat": "2",
      "reclong": "22.66667",
      "GeoLocation": "(2.0, 22.66667)"
    },
    {
      "name": "Guillaume",
      "id": "10023",
      "recclass": "Eucrite-mmict",
      "mass (g)": "252",
      "reclat": "45.82133",
      "reclong": "6.01533",
      "GeoLocation": "(45.82133, 6.01533)"
    },
    {
      "name": "Bautista",
      "id": "10024",
      "recclass": "LL5",
      "mass (g)": "700",
      "reclat": "51.78333",
      "reclong": "-1.78333",
      "GeoLocation": "(51.78333, -1.78333)"
    },
    {
      "name": "Delgado",
      "id": "10025",
      "recclass": "L6",
      "mass (g)": "3200",
      "reclat": "36.23333",
      "reclong": "37.13333",
      "GeoLocation": "(36.23333, 37.13333)"
    },
    {
      "name": "Thompson",
      "id": "10026",
      "recclass": "H5",
      "mass (g)": "908",
      "reclat": "44.88333",
      "reclong": "8.75",
      "GeoLocation": "(44.88333, 8.75)"
    },
    {
      "name": "Fritter",
      "id": "10027",
      "recclass": "H4",
      "mass (g)": "9251",
      "reclat": "50.95",
      "reclong": "31.81667",
      "GeoLocation": "(50.95, 31.81667)"
    },
    {
      "name": "Fletcher",
      "id": "10028",
      "recclass": "L6",
      "mass (g)": "228000",
      "reclat": "45.26667",
      "reclong": "10.15",
      "GeoLocation": "(45.26667, 10.15)"
    },
    {
      "name": "Belin",
      "id": "10029",
      "recclass": "H5",
      "mass (g)": "32000",
      "reclat": "42.53333",
      "reclong": "-85.88333",
      "GeoLocation": "(42.53333, -85.88333)"
    },
    {
      "name": "Poeschel",
      "id": "10030",
      "recclass": "CV3",
      "mass (g)": "2000000",
      "reclat": "26.96667",
      "reclong": "-105.31667",
      "GeoLocation": "(26.96667, -105.31667)"
    }
  ]
}